Name,Latitude,Longitude,Location
SREC Health Center,11.1005451,76.9637445,"unnamed road, Ward 27, Coimbatore - 641001, Tamil Nadu, India"
Sri Ramakrishna Dental Hospital,11.0212988,76.9883526,"Sri Ramakrishna Dental Hospital, Way to Avarampalayam, Avarampalayam, Coimbatore - 641001, Tamil Nadu, India"
Ellen Multispeciality Hospital,11.0213634,76.9708723,"Ellen Multispeciality Hospital, Sathy Main Road, Ward 52, Coimbatore - 641001, Tamil Nadu, India"
GP Hospital,11.0201233,76.9710726,"GP Hospital, Sathi Road, Ward 52, Coimbatore - 641001, Tamil Nadu, India"
Saravana Dental Care Hospital,11.0028292,76.9513725,"Saravana Dental Care Hospital, Diwan Bahadur Road, RS Puram, - 641007, Tamil Nadu, India"
Senthil Hospital,11.0089752,76.9578034,"Senthil Hospital, Krishnasamy Road, Ward 25, Coimbatore - 641001, Tamil Nadu, India"
Dr. S. G. Rajarathinam Hospital,11.0095256,76.9619316,"Dr. S. G. Rajarathinam Hospital, Ansari Street, Ram Nagar, Coimbatore - 641009, Tamil Nadu, India"
"K. G. Hospital, Coimbatore",11.0004227,76.9715023,"K. G. Hospital, Coimbatore, Arts College Road, Ward 73, Coimbatore - 641018, Tamil Nadu, India"
Sengaliappan Nursing Home,11.0165542,76.955239,"Sengaliappan Nursing Home, North Coimbatore Flyover Ramp, Saibaba Colony, Coimbatore - 641001, Tamil Nadu, India"
Bala Hospital,10.9969296,76.995705,"Bala Hospital, Tiruchi Road, Ward 68, Coimbatore - 641001, Tamil Nadu, India"
"Ganga Medical Centre and Hospitals Pvt. Ltd ,Ramnagar",11.0158724,76.9594235,"Ganga Medical Centre and Hospitals Pvt. Ltd, Ramnagar, Cross Cut Road, Gandhipuram, Coimbatore - 641009, Tamil Nadu, India"
Krishna Nursing Home,11.0152327,76.9593766,"Krishna Nursing Home, Rajammal Layout( Patel Road), Gandhipuram, Coimbatore - 641001, Tamil Nadu, India"
"Kongunad Hospital, Coimbatore",11.018058,76.9604883,"Kongunad Hospital, Coimbatore, Cross Cut Road, Gandhipuram, Coimbatore - 641012, Tamil Nadu, India"
Sheela Clinic,11.01843,76.9604642,"Sheela Clinic, Cross Cut Road, Gandhipuram, Coimbatore - 641012, Tamil Nadu, India"
"Surya Hospital, Coimbatore",11.0390101,76.979517,"Surya Hospital, Coimbatore, Bharathiar Road, Bharathi Nagar, Coimbatore - 641006, Tamil Nadu, India"
Fair Pharma,10.8927566,76.9246984,"Fair Pharma, Salem - Kochi - Kanyakumari Highway, Coimbatore, Madukkarai - 641105, Tamil Nadu, India"
Vasan eye Care Hospital,10.9560967,76.9540004,"Vasan eye Care Hospital, Palghat road, Ward 88, Madukkarai - 641105, Tamil Nadu, India"
Unknown Hospital,10.3285722,76.9558507,"Pollachi - Valparai Road, Coimbatore, Valparai - 642127, Tamil Nadu, India"
PSG Hospitals,11.0188398,77.0073136,"PSG Hospitals, Link Road, Ward 56, - 641004, Tamil Nadu, India"
K T V R Group Hospital,11.026167,76.9499384,"K T V R Group Hospital, NSR Road, Saibaba Colony, Coimbatore - 641011, Tamil Nadu, India"
Coimbatore Bone and Joint Foundation (P) Ltd.,11.0149404,76.9543844,"Coimbatore Bone and Joint Foundation (P) Ltd., Bashyakarlu Road, Vadakovai, - 641002, Tamil Nadu, India"
"Womens Medical Centre, Coimbatore",11.0337824,76.9517175,"Womens Medical Centre, Coimbatore, Mettupalayam Road, Ward 10, Coimbatore - 641002, Tamil Nadu, India"
Masonic Medical Centre For Children,10.9997961,76.9799441,"Masonic Medical Centre For Children, Race Course Walking Path, Racecourse, Coimbatore - 641018, Tamil Nadu, India"
Somu medicals,11.0264568,76.9448591,"Somu medicals, NSR Road, Saibaba Colony, Coimbatore - 641001, Tamil Nadu, India"
Akila Medicals,11.0265516,76.9443924,"Akila Medicals, NSR Road, Saibaba Colony, Coimbatore - 641001, Tamil Nadu, India"
Dr.U.S.Prakash's Clinic,11.0256249,76.9372845,"Dr.U.S.Prakash's Clinic, NSR Road, Saibaba Colony, Coimbatore - 641001, Tamil Nadu, India"
KG Eye Hospital,11.0825506,76.997422,"KG Eye Hospital, Robert Bosch Street, Ward 28, Coimbatore - 641001, Tamil Nadu, India"
"Shree Siva Hospital, Ganapathy,",11.0441103,76.9856071,"Shree Siva Hospital, Ganapathy, Sakthi Main Road, Bharathi Nagar, Coimbatore - 641006, Tamil Nadu, India"
Mettupalayam GH,11.3047109,76.9364387,"Mettupalayam GH, Ooty-Coonoor Road, Coimbatore, Mettupalayam - 641301, Tamil Nadu, India"
Hindustan Hospital,11.2816017,76.9462511,"Hindustan Hospital, Mettupalayam-Coimbatore Road, Coimbatore, Mettupalayam - 641301, Tamil Nadu, India"
K.R. Hospital,11.1564875,76.944041,"K.R. Hospital, Mettupalayam-Coimbatore Road, Periyanaickenpalyam, Veerapandi Pirivu - 641047, Tamil Nadu, India"
Kalpaviruksha Ayurvedic Hospital,11.1293552,76.9351656,"Kalpaviruksha Ayurvedic Hospital, Coimbatore-Mettupalayam Road, Coimbatore, Narasimhnaickenpalayam - 641020, Tamil Nadu, India"
Sai Shraddha Hospitality,11.0254581,76.9726262,"Sai Shraddha Hospitality, P.M.Swamy Colony - Vishwanathapuram - Lakshmipuram Road, Ward 48, Coimbatore - 641001, Tamil Nadu, India"
Vega ENT Hospitals,11.0144183,76.9437894,"Vega ENT Hospitals, Goving Singh Road, Vadakovai, - 641002, Tamil Nadu, India"
Sitalakshmi Hospital,11.0142906,76.9449521,"Sitalakshmi Hospital, Cowley Brown Rd, Ward 79, - 641002, Tamil Nadu, India"
Manonmani Hospital,11.0147975,76.9475002,"Manonmani Hospital, Cowley Brown Rd, Ward 21, - 641002, Tamil Nadu, India"
Preetam's Cardio Care,11.0152003,76.9498136,"Preetam's Cardio Care, Cowley Brown Rd, Ward 21, - 641002, Tamil Nadu, India"
Rasi Hospital,11.0097731,76.9503293,"Rasi Hospital, Diwan Bahadur Road, RS Puram, - 641002, Tamil Nadu, India"
Immanuel Eye Hospital,11.3022381,76.9400735,"Immanuel Eye Hospital, Avinashi - Mettupalayam Road, Coimbatore, Mettupalayam - 641301, Tamil Nadu, India"
City Hospital,11.0193391,76.9635166,"City Hospital, 100 Feet Road, Ward 52, Coimbatore - 641001, Tamil Nadu, India"
Bethel Hospital,11.0190021,76.962084,"Bethel Hospital, 100 Feet Road, Ward 52, Coimbatore - 641001, Tamil Nadu, India"
Arasu Medicals,11.010593,76.950234,"Arasu Medicals, Diwan Bhadur Road, Vadakovai, - 641002, Tamil Nadu, India"
The Eye Foundaton,11.0134549,76.9496753,"The Eye Foundaton, Diwan Bhadur Road, Vadakovai, - 641002, Tamil Nadu, India"
Moses Eye Hospital,10.9943793,76.9664663,"Moses Eye Hospital, Big Bazzar Street, Ward 82, - 641001, Tamil Nadu, India"
Thayarammal poly clinic,10.9935069,76.9756194,"Thayarammal poly clinic, Valankulam Bypass Road, Ramanathapuram, Coimbatore - 641001, Tamil Nadu, India"
Vasan Eye Care Hospital,11.0124743,76.9862396,"Vasan Eye Care Hospital, Puliyakulam Road, Puliakulam, Coimbatore - 641037, Tamil Nadu, India"
Coimbatore Kidney Centre,11.009415,76.9893791,"Coimbatore Kidney Centre, Puliyakulam Road, Puliakulam, Coimbatore - 641045, Tamil Nadu, India"
Clinic - Dr.Rajashree,10.9978977,76.9893923,"Clinic - Dr.Rajashree, Tiruchi Road, Ward 73, Coimbatore - 641001, Tamil Nadu, India"
K. J. Hospital,10.9414068,76.9369908,"K. J. Hospital, kovaipudur Terminus Rd, Ward 90, - 641042, Tamil Nadu, India"
Ashwin Hospital,11.0241826,76.9731186,"Ashwin Hospital, Sathy Main Road, Ward 52, Coimbatore - 641012, Tamil Nadu, India"
The Eye Foundation,11.3031429,76.9359938,"The Eye Foundation, Mettupalayam to Bathirakaliamman Koil, Coimbatore, Mettupalayam - 641301, Tamil Nadu, India"
Aravindan Hospital,11.1334592,77.0340488,"Aravindan Hospital, Karuvalur - Kovilpalayam Road, Coimbatore, Kovilpalayam - 641107, Tamil Nadu, India"
Arya Vaidya Pharmacy,10.995609,76.9917076,"Arya Vaidya Pharmacy, Nachi Angannan Thevar Street, Ward 74, Coimbatore - 641001, Tamil Nadu, India"
Aalva Hospital,10.6378336,76.950131,"Aalva Hospital, Avinashi - Tiruppur - Palladam - Pollachi - Meenkarai - Kochi Road, Coimbatore, Ambarampalayam - 642103, Tamil Nadu, India"
Primary Health Center,10.601104,76.9285955,"Primary Health Center, Ambarampalayam - Anaimalai - Sethumadai Road, Coimbatore, Anaimalai - 642104, Tamil Nadu, India"
"Vasan Eye Care Hospital, Kuniamuthoor",10.957713,76.9543156,"Vasan Eye Care Hospital, Kuniamuthoor, Palghat road, Ward 88, Madukkarai - 641008, Tamil Nadu, India"
Ortho One,11.0018351,77.0328061,"Ortho One, Tiruchi Road, Uppilipalayam, - 641015, Tamil Nadu, India"
Government Urban Primary Health Center,11.0827084,76.9427442,"Government Urban Primary Health Center, Ward 1, Coimbatore - 641034, Tamil Nadu, India"
Karpagam Faculty Of Medical Sciences And Research,10.8840061,77.0066035,"Karpagam Faculty Of Medical Sciences And Research, Karpagam College Road, Coimbatore, Othakalmandapam - 641032, Tamil Nadu, India"
Sholayar Garden Hospital,10.2935723,76.9455228,"Sholayar Garden Hospital, Valparai - Manicka Kurangumudi Road, Coimbatore, Valparai - 642127, Tamil Nadu, India"
Aravind Eye Hospital (City Centre),11.0153158,76.9539881,"Aravind Eye Hospital (City Centre), Cowley Brown Rd, Ward 79, - 641002, Tamil Nadu, India"
"Lotus Eye Care Hospital, Coimbatore",11.0140006,76.9543624,"Lotus Eye Hospital, Venkitasamy Road, Vadakovai, - 641601, Tamil Nadu, India"
ECHS,11.0051924,76.9879176,"ECHS, INS Agrani, Puliakulam, Coimbatore - 641001, Tamil Nadu, India"
ECHS Polyclinic,11.0053321,76.9876533,"ECHS Polyclinic, INS Agrani, Puliakulam, Coimbatore - 641001, Tamil Nadu, India"
Unknown Hospital,11.0248424,76.9564023,"BKR Heart Center, Tank Road, Tatabad, Coimbatore - 641012, Tamil Nadu, India"
Baalaje Hospital,11.0247244,76.9055811,"Baalaje Hospital, Kaundampalayam - Vadavalli - Onappalayam Road, Vadavalli, - 641041, Tamil Nadu, India"
"Sri Lakshmi Hospital, Coimbatore",11.0782349,76.9409348,"Sri Lakshmi Hospital, Coimbatore, Coimbatore-Mettupalayam Road, Ward 1, Coimbatore - 641027, Tamil Nadu, India"
Vijaya Hospitals,11.0148532,76.9489909,"Vijaya Hospital, Cowley Brown Rd, Ward 79, - 641002, Tamil Nadu, India"
Unknown Hospital,11.2926106,76.9402005,"Mettupalayam-Coimbatore Road, Coimbatore, Mettupalayam - 641301, Tamil Nadu, India"
"Shri Hari Hospital, Coimbatore",11.0265248,76.9475939,"Shri Hari Hospital, Coimbatore, NSR Road, Saibaba Colony, Coimbatore - 641011, Tamil Nadu, India"
Bethesda Hospital,11.0354039,76.9304803,"Bethesda Hospital, Kovilmedu Road, Ward 12, Coimbatore - 641025, Tamil Nadu, India"
"Kiruba Hospital, Koilmedu,Coimbatore",11.0335068,76.929457,"Kiruba Hospital, Koilmedu, Coimbatore, Kovilmedu Road, Ward 12, Coimbatore - 641025, Tamil Nadu, India"
G R Hospital,11.0093491,77.0024216,"G R Hospital, Sowripalayam Road, Udayampalayam, - 641028, Tamil Nadu, India"
TNAU Hospital,11.0080012,76.9362691,"TNAU Hospital, TNAU Hospital road, Ward 21, Coimbatore - 641001, Tamil Nadu, India"
Unknown Hospital,11.087657,77.003366,"Vimal jothi, Sathyamangalam Road, Sarvanampatti, Villangkurichi - 641001, Tamil Nadu, India"
Subbu Hospital,11.2434041,76.9602041,"Subbu Hospital, east car street, Coimbatore, Karamadai - 641104, Tamil Nadu, India"
Government primary health center,11.2385887,76.9640887,"Government primary health center, Karamadai - Kariyampalayam Road, Coimbatore, Karamadai - 641104, Tamil Nadu, India"
Telugupalayam Hospital,10.9842757,76.9297655,"Telugupalayam Hospital, Coimbatore - Siruvani Road, Ward 76, Perur - 641026, Tamil Nadu, India"
Leo Ortho care Hospital,10.9969428,76.9993022,"Leo Ortho care Hospital, NH181, Ward 67, Coimbatore - 641045, Tamil Nadu, India"
Eye Trust Hospital,11.0242987,76.9582327,"Eye Trust, 80, Sivananda Colony Main Road, Tatabad, Coimbatore - 641012, Tamil Nadu, India"
government sub health center,11.2376384,76.9224629,"government sub health center, Kurunthamalai road, Coimbatore, - 641104, Tamil Nadu, India"
ESI Hospital,11.0092807,77.0240486,"ESI Hospital, Kamarajar Road, Uppilipalayam, - 641015, Tamil Nadu, India"
bhagirathi hospital,11.0794799,76.9409445,"bhagirathi hospital, Ward 1, Coimbatore - 641001, Tamil Nadu, India"
Bethel Hospital Pvt. Ltd. - Coimbatore,11.0187223,76.9612328,"Bethel Hospital Pvt. Ltd. - Coimbatore, 100 Feet Road, Ward 52, Coimbatore - 641012, Tamil Nadu, India"
"Park Hospital, Coimbatore",11.0419411,77.0379131,"Park Hospital, Coimbatore, Sitra - Kurumbapalayam Road, Civil Aerodrome, Coimbatore - 641014, Tamil Nadu, India"
"Srinivasa Hospital, Sirumugai",11.3218786,77.0092678,"Srinivasa Hospital, Sirumugai, Udhagamandalam - Kotagiri - Mettupalayam - Sathyamangalam - Gobichettipalayam - Erode Road, Coimbatore, Sirumugai - 641006, Tamil Nadu, India"
"Mouthi Hospital Vadavalli, Coimbatore",11.0291808,76.9019419,"Mouthi Hospital Vadavalli, Coimbatore, Maruthamalai Road, Ward 16, - 641041, Tamil Nadu, India"
"Vikaram ENT Hospital, Coimbatore",11.0120021,76.9494063,"Vikaram ENT Hospital, Coimbatore, East Venkataswamy Road, Ward 23, - 641002, Tamil Nadu, India"
R. A. Hospital,10.998556,76.9918562,"R. A. Hospital, Tiruchi Road, Ward 73, Coimbatore - 641045, Tamil Nadu, India"
"R V Hospital, Coimbatore",11.0546916,77.0639178,"R V Hospital, Coimbatore, Avinashi Road, Ward 35, Coimbatore - 641653, Tamil Nadu, India"
R A Medical Center and Hospital,11.2976038,76.940787,"R A Medical Center and Hospital, Mettupalayam-Coimbatore Road, Coimbatore, Mettupalayam - 641301, Tamil Nadu, India"
Vasavi Hospital,10.9927872,76.9550228,"Vasavi Hospital, Vysial Street, Ukkadam, - 641001, Tamil Nadu, India"
Arathana Hospital,10.6682257,77.0070174,"Arathana Hospital, Pollachi - Coimbatore Road, Cheran Nagar, Pollachi - 642002, Tamil Nadu, India"
Vallalar Hospitals (Pvt) Ltd,11.0218408,76.9152537,"Vallalar Hospitals (Pvt) Ltd, Maruthamalai Road, Ward 15, Coimbatore - 641041, Tamil Nadu, India"
"Sri Ramakrishna Hospital, Coimbatore",11.0231203,76.9776419,"Sri Ramakrishna Hospital, Coimbatore, Avarampalayam Road, Siddhapudur, Coimbatore - 641044, Tamil Nadu, India"
Sri Ramana Hospital,10.9972817,76.9598213,"Sri Ramana Hospital, Edaiyar Street, Town Hall, - 641002, Tamil Nadu, India"
"Sri Sakthi Hospital, Ganapathi, Coimbatore",11.0474918,76.9930659,"Sri Sakthi Hospital, Ganapathi, Coimbatore, Police Quarters Road, Bharathi Nagar, Coimbatore - 641006, Tamil Nadu, India"
Sri Maruthi Medical Center and Hospital,11.0891666,76.9384105,"Sri Maruthi Medical Center and Hospital, Coimbatore-Mettupalayam Road, Ward 1, Coimbatore - 641017, Tamil Nadu, India"
Veeku Hospital,11.0150799,76.9517022,"Veeku Hospital, Cowley Brown Rd, Ward 79, - 641002, Tamil Nadu, India"
"Vasan Eye Care Hospital, Pollachi",10.6643938,77.0057119,"Vasan Eye Care Hospital, Pollachi, Pollachi - Coimbatore Road, Cheran Nagar, Pollachi - 642001, Tamil Nadu, India"
Pranav Clinic,11.0631074,76.9985509,"Pranav Clinic, Sathyamangalam Road, Sivanandhapuram, Chinnavedampatti - 641001, Tamil Nadu, India"
Garnett Memorial Eye Hospital,11.3020423,76.9400816,"Garnett Memorial Eye Hospital, Avinashi - Mettupalayam Road, Coimbatore, Mettupalayam - 641301, Tamil Nadu, India"
Gowtham Hospital,10.962127,76.9556397,"Gowtham Hospital, Palghat road, Ward 88, Madukkarai - 641008, Tamil Nadu, India"
"St Lukes Hospital, Coimbatore",11.0335424,77.0376261,"St Lukes Hospital, Coimbatore, Airport Road, Civil Aerodrome, Coimbatore - 641014, Tamil Nadu, India"
N.M. Hospital,10.9981558,76.9994865,"N.M. Hospital, Nagappa Thevar Street, Ward 67, Coimbatore - 641045, Tamil Nadu, India"
Sri Guru Hospital Pvt Ltd,11.0264336,76.9423118,"Sri Guru Hospital Pvt Ltd, NSR Road, Saibaba Colony, Coimbatore - 641031, Tamil Nadu, India"
H. S. Hospital,11.0418035,76.9477855,"H. S. Hospital, Coimbatore-Mettupalayam Road, Housing Unit, Coimbatore - 641030, Tamil Nadu, India"
Vedanayagam Hospital (P) Limited,11.0144375,76.9504979,"Vedanayagam Hospital (P) Limited, Bashyakarlu Road, Vadakovai, - 641002, Tamil Nadu, India"
Siva Meds Multispeciality Hospital,10.6633006,77.0100774,"Siva Meds Multispeciality Hospital, New scheme road, Coimbatore, Pollachi - 642002, Tamil Nadu, India"
VGM Hospital,10.9986666,77.0143291,"VGM Hospital, Tiruchi Road, Uppilipalayam, - 641005, Tamil Nadu, India"
Dr. Muthu's Ortho Centre-Coimbatore,11.0026291,77.0406497,"Dr. Muthu's Ortho Centre-Coimbatore, Tiruchi Road, Ward 61, - 641045, Tamil Nadu, India"
Sree Abishek Hospitals,11.0430968,76.9241157,"Sree Abishek Hospitals, Thadagam Road, Ward 6, Coimbatore - 641025, Tamil Nadu, India"
Sree Andal Hospital,11.0560065,77.0164575,"Sree Andal Hospital, Vilankuruchi Road, Ward 32, Coimbatore - 641035, Tamil Nadu, India"
The Arya Vaidya Chikitsalayam and Research Institue,10.9958401,76.9915813,"The Arya Vaidya Chikitsalayam and Research Institue, Nachi Angannan Thevar Street, Ward 74, Coimbatore - 641045, Tamil Nadu, India"
Kps Hospitals Pvt Ltd,11.3003873,76.9402459,"Kps Hospitals Pvt Ltd, Gandhipuram1stStreet, Coimbatore, Mettupalayam - 641301, Tamil Nadu, India"
Kovai Ent Hospital and Research Centre,11.041741,76.9835246,"Kovai Ent Hospital and Research Centre, Sakthi Main Road, Bharathi Nagar, Coimbatore - 641006, Tamil Nadu, India"
Kovai Diabetes Speciality Centre and Hospital,11.0159329,76.9613153,"Kovai Diabetes Speciality Centre and Hospital, Vivekanada Road, Gandhipuram, Coimbatore - 641009, Tamil Nadu, India"
Koushikha Hospital,10.9589868,76.9788824,"Koushikha Hospital, Sarada Mill Road, Ward 96, Podanur - 641024, Tamil Nadu, India"
"Kiruba Hospital, Mettupalayam",11.2998948,76.9330971,"Kiruba Hospital, Mettupalayam, SudhaColonyRoad, Coimbatore, Mettupalayam - 641305, Tamil Nadu, India"
Chinniampalayam Venkateshwara Hospital,11.0545152,77.0652106,"Chinniampalayam Venkateshwara Hospital, Avinashi Road, Ward 35, Coimbatore - 641062, Tamil Nadu, India"
Richmond Hospital,10.9946605,76.9793813,"Richmond Hospital, Tiruchi Road, Ward 73, Coimbatore - 641018, Tamil Nadu, India"
"Ranga Hospital, Velandipalayam",11.0290235,76.932096,"Ranga Hospital, Velandipalayam, Thadagam Road, Ward 13, Coimbatore - 641025, Tamil Nadu, India"
Rao Hospital,11.018513,76.9445555,"Rao Hospital, Bharathi Park Road, Saibaba Colony, Coimbatore - 641002, Tamil Nadu, India"
"Joseph Hospital, Coimbatore",11.017244,76.9990446,"Joseph Hospital, Coimbatore, Mariamman Koil Street, Ward 56, - 641004, Tamil Nadu, India"
Ramvel Hospital,11.01362,77.0222618,"Ramvel Hospital, Kamarajar Road, Uppilipalayam, - 641015, Tamil Nadu, India"
"Suriya Hospital, Coimbatore",11.30192,76.9400722,"Suriya Hospital, Coimbatore, Avinashi - Mettupalayam Road, Coimbatore, Mettupalayam - 641301, Tamil Nadu, India"
"Supa Hospital, Coimbatore",11.3053984,76.9361427,"Supa Hospital, Coimbatore, Ooty-Coonoor Road, Coimbatore, Mettupalayam - 642110, Tamil Nadu, India"
Immaculate Conception Convent Hospital,10.9943683,76.9642074,"Immaculate Conception Convent Hospital, Big Bazzar Street, Ward 82, - 641001, Tamil Nadu, India"
"Vasan Eye Care Hospital, Coimbatore",11.0091245,76.9454058,"Vasan Eye Care Hospital, Coimbatore, Thiruvenkatasamy (TV Samy) Road, Ward 79, - 641002, Tamil Nadu, India"
"Krithika Hospital , Tiruppur",11.0424742,76.9476856,"Krithika Hospital, Tiruppur, Coimbatore-Mettupalayam Road, Housing Unit, Coimbatore - 641687, Tamil Nadu, India"
MRS Hospital & Fertility centre,10.6647489,77.0050326,"MRS Hospital & Fertility centre, Pollachi - Palakkad Road, Nallur, Pollachi - 642001, Tamil Nadu, India"
M. V. Eye Care Centre,11.0129421,76.9629608,"M. V. Eye Care Centre, Kalidas Road, Ram Nagar, Coimbatore - 641009, Tamil Nadu, India"
"Lotus Eye Care Hospital Ltd, Coimbatore",11.0406116,77.0401856,"Lotus Eye Care Hospital Ltd, Coimbatore, Avinashi Road, Civil Aerodrome, Coimbatore - 641014, Tamil Nadu, India"
Nandha Hospital,11.0168636,76.9756664,"Nandha Hospital, Bharathiyar Road, Ward 52, Coimbatore - 641044, Tamil Nadu, India"
Nataraj Medical Care Center Private Limited,10.994101,76.9569379,"Nataraj Medical Care Center Private Limited, Raja Street, Ward 83, - 641105, Tamil Nadu, India"
Ortho One Orthopaedic Speciality Center(A Unit Of Spine Arthroscopic and Joint Replacement Center Pvt Ltd),10.9962048,77.0082217,"Ortho One Orthopaedic Speciality Center(A Unit Of Spine Arthroscopic and Joint Replacement Center Pvt Ltd), NH181, Sowripalayam, - 641005, Tamil Nadu, India"
Padmavathy Hospital,11.0427427,76.9477212,"Padmavathy Hospital, Coimbatore-Mettupalayam Road, Housing Unit, Coimbatore - 641030, Tamil Nadu, India"
Vishnu Ent Hospital - Coimbatore,11.0265389,76.9470734,"Vishnu Ent Hospital - Coimbatore, NSR Road, Saibaba Colony, Coimbatore - 641011, Tamil Nadu, India"
Mcv Memorial Ent Trust Hospital,10.6627918,76.9995756,"Mcv Memorial Ent Trust Hospital, Pollachi - Palakkad Road, Nallur, Pollachi - 642001, Tamil Nadu, India"
The Balakrishnan Hospital,11.0190567,76.9625585,"The Balakrishnan Hospital, 100 Feet Road, Ward 52, Coimbatore - 641012, Tamil Nadu, India"
The Pollachi Cardiac Center,10.6742907,77.0081305,"The Pollachi Cardiac Center, Pollachi - Coimbatore Road, Cheran Nagar, Pollachi - 642002, Tamil Nadu, India"
Subbiah Nadar Krishnammal Selvam Hospital,11.3066497,76.9326887,"Subbiah Nadar Krishnammal Selvam Hospital, Ooty-Coonoor Road, Coimbatore, Mettupalayam - 642110, Tamil Nadu, India"
Sowmiya Hospital,11.2400426,76.9619912,"Sowmiya Hospital, KNP, Coimbatore, Karamadai - 641104, Tamil Nadu, India"
"Sangeetha Hospital, Coimbatore",10.963603,76.9563907,"Sangeetha Hospital, Coimbatore, Palghat road, Ward 87, Madukkarai - 641008, Tamil Nadu, India"
"Priya Hospital, Coimbatore",10.9446403,76.9352093,"Priya Hospital, Coimbatore, Nagapillayar temple Rd, Ward 90, - 641014, Tamil Nadu, India"
Sumith Hospital,11.0261493,77.0176752,"Sumith Hospital, Vilankuruchi Road, Ward 37, Coimbatore - 641004, Tamil Nadu, India"
"Rajah Hospital, Coimbatore",11.0270299,77.0187333,"Rajah Hospital, Coimbatore, Avinashi Road, Ward 37, Coimbatore - 641004, Tamil Nadu, India"
Lalitha Hospital,11.0174139,76.9617565,"Lalitha Hospital, Cross Cut Road, Gandhipuram, Coimbatore - 641012, Tamil Nadu, India"
"Hindusthan Hospital, Coimbatore",11.019682,76.9947731,"Hindusthan Hospital, Coimbatore, Mariamman Koil Street, Ward 56, - 641028, Tamil Nadu, India"
"Kumaran Hospital, Coimbatore",11.0150812,76.95132,"Kumaran Hospital, Coimbatore, Cowley Brown Rd, Ward 79, - 641002, Tamil Nadu, India"
Seesha Karunya Community Hospital,11.0160619,76.9593814,"Seesha Karunya Community Hospital, Cross Cut Road, Gandhipuram, Coimbatore - 641110, Tamil Nadu, India"
K.M. Hospitals,10.6625561,77.003421,"K.M. Hospitals, Pollachi - Palakkad Road, Coimbatore, Pollachi - 642001, Tamil Nadu, India"
"Sanjeevani Hospital And Maternity Home, Annur",11.21711,77.0872946,"Sanjeevani Hospital And Maternity Home, Annur, Kumarapalayam Road, Coimbatore, Annur - 641001, Tamil Nadu, India"
"Sankara Eye Hospital, Coimbatore",11.0133673,76.9553728,"Sankara Eye Hospital, Coimbatore, Krishnasamy Road, Vadakovai, - 641002, Tamil Nadu, India"
Madurai Eye Center,11.0137122,76.951316,"Madurai Eye Center, Venkitasamy Road, Vadakovai, - 641018, Tamil Nadu, India"
Vega Ent Hospital,11.0142295,76.9437897,"Vega Ent Hospital, Goving Singh Road, Vadakovai, - 641002, Tamil Nadu, India"
Spt Hospitals,11.0143493,76.9614293,"Spt Hospitals, Vivekanada Road, Gandhipuram, Coimbatore - 641009, Tamil Nadu, India"
Dr K Padmavathy Hospital,11.0081878,76.9578948,"Dr K Padmavathy Hospital, Shanmuga Theatre Road, Vadakovai, - 641030, Tamil Nadu, India"
"V.G. Hospital, Thudiyalur",11.0708056,76.9419859,"V.G. Hospital, Thudiyalur, Coimbatore-Mettupalayam Road, Ward 2, Coimbatore - 641034, Tamil Nadu, India"
Sri Vishnu Priyaa Hospitals Pvt Ltd,11.036949,76.927958,"Sri Vishnu Priyaa Hospitals Pvt Ltd, Sivaji Colony, Ward 8, Coimbatore - 641025, Tamil Nadu, India"
Aparna Hospital,10.9561995,76.9541618,"Aparna Hospital, Palghat road, Ward 88, Madukkarai - 641008, Tamil Nadu, India"
"Smyle Hospital, Mettupalayam",11.2878481,76.9420704,"Smyle Hospital, Mettupalayam, Mettupalayam-Coimbatore Road, Coimbatore, Mettupalayam - 641301, Tamil Nadu, India"
Snekaram Multi Specality Hospital,10.987562,76.9358088,"Snekaram Multi Specality Hospital, Coimbatore - Siruvani Road, Ward 76, Perur - 641026, Tamil Nadu, India"
"Maruthi Hospital, Coimbatore",11.0031531,76.9513019,"Maruthi Hospital, Coimbatore, Arunachalam Street, Ward 24, - 641002, Tamil Nadu, India"
K. J. Hospital,10.9707765,76.9564471,"K. J. Hospital, Palghat road, Ward 87, - 641008, Tamil Nadu, India"
Roselet Medical ObgandSurgical Centre,11.0177943,76.9612482,"Roselet Medical ObgandSurgical Centre, Cross Cut Road, Gandhipuram, Coimbatore - 641028, Tamil Nadu, India"
Sruti Hospitals,11.0060677,76.9525994,"Sruti Hospitals, Ramachandra Road, RS Puram, - 641002, Tamil Nadu, India"
burma doctor hospital,11.2414022,76.9600962,"burma doctor hospital, Karamadai - Sirumugai Road, Coimbatore, Karamadai - 641104, Tamil Nadu, India"
Ar Ortho Hospital,10.6622765,77.0125401,"Ar Ortho Hospital, New scheme road, Coimbatore, Pollachi - 642001, Tamil Nadu, India"
Shree Sivaa Hospital,11.0450728,76.9856121,"Shree Sivaa Hospital, Sathyamangalam Road, Bharathi Nagar, Coimbatore - 641006, Tamil Nadu, India"
Dr. BRJ Ortho Centre,11.0340354,76.9512209,"Dr. BRJ Ortho Centre, Mettupalayam Road, Ward 10, Coimbatore - 641043, Tamil Nadu, India"
"Mudis Garden Hospital, Valparai",10.2780339,76.9272208,"Mudis Garden Hospital, Valparai, Valparai - Manicka Kurangumudi Road, Coimbatore, Valparai - 642125, Tamil Nadu, India"
"Prabhu Hospital, Pc Pollachi",10.66269,77.009684,"Prabhu Hospital, Pc Pollachi, New scheme road, Coimbatore, Pollachi - 642002, Tamil Nadu, India"
Avm Hospital- Pollachi,10.66242,77.0030365,"Avm Hospital- Pollachi, Pollachi - Palakkad Road, Coimbatore, Pollachi - 642001, Tamil Nadu, India"
"Kowsalya Medical Centre, Pollachi",10.66299,77.010025,"Kowsalya Medical Centre, Pollachi, New scheme road, Coimbatore, Pollachi - 642001, Tamil Nadu, India"
"S.N. Hospital, Pollachi",10.659567,77.0005675,"S.N. Hospital, Pollachi, Raja Mill Road, Coimbatore, Pollachi - 642001, Tamil Nadu, India"
"K.G.M. Hospital Paavhai Women's Cente, Pollachi",10.67023,77.007418,"K.G.M. Hospital Paavhai Women's Cente, Pollachi, Pollachi - Coimbatore Road, Cheran Nagar, Pollachi - 642002, Tamil Nadu, India"
"Sakthi Hospital, Pollachi",10.6629552,77.0106019,"Sakthi Hospital, Pollachi, New scheme road, Coimbatore, Pollachi - 642002, Tamil Nadu, India"
"JP Hospital, Pollachi",10.66024,77.0049,"JP Hospital, Pollachi, Raja Mill Road, Coimbatore, Pollachi - 642001, Tamil Nadu, India"
"Government Hospital, Pollachi",10.6581617,77.0098249,"Government Hospital, Pollachi, NH83, Coimbatore, Pollachi - 642001, Tamil Nadu, India"
Thirumalai Hospital,10.6650579,77.005872,"Thirumalai Hospital, Pollachi - Coimbatore Road, Cheran Nagar, Pollachi - 642001, Tamil Nadu, India"
"Moorthy Hospital, Udumalai",10.6220772,77.1484896,"Moorthy Hospital, Udumalai, NH83, Tiruppur, Gomangalam - 642126, Tamil Nadu, India"
Pills Hospital,10.66419,77.010376,"Pills Hospital, New scheme road, Coimbatore, Pollachi - 642002, Tamil Nadu, India"
"ShreeHospital ,Negamam",10.7433038,77.1003106,"ShreeHospital, Negamam, Avinashi - Tiruppur - Palladam - Pollachi - Meenkarai - Kochi Road, Coimbatore, Kattampatti - 642120, Tamil Nadu, India"
"Shanthi Hospital, Pollachi",10.6631858,77.0149942,"Shanthi Hospital, Pollachi, Avinashi - Tiruppur - Palladam - Pollachi - Meenkarai - Kochi Road, Coimbatore, Pollachi - 642002, Tamil Nadu, India"
Vadugapalayam Government Hospital,10.66878,76.9951891,"Vadugapalayam Government Hospital, Pollachi - Palakkad Road, Nallur, Pollachi - 642001, Tamil Nadu, India"
"Surya Hospital, Pollachi",10.6627371,77.0122918,"Surya Hospital, Pollachi, New scheme road, Coimbatore, Pollachi - 642002, Tamil Nadu, India"
"Arun Hospital, Pollachi",10.6625657,77.0129734,"Arun Hospital, Pollachi, New scheme road, Coimbatore, Pollachi - 642002, Tamil Nadu, India"
"Government Hospital, Vettaikaranputhur",10.564213,76.9196298,"Government Hospital, Vettaikaranputhur, Ambarampalayam - Anaimalai - Sethumadai Road, Coimbatore, Anaimalai - 642129, Tamil Nadu, India"
"Pannimedu Hospital, Valparai",10.325588,76.9555929,"Pannimedu Hospital, Valparai, Pollachi - Valparai Road, Coimbatore, Valparai - 642127, Tamil Nadu, India"
"Government Hospital, Valparai",10.329979,76.957798,"Government Hospital, Valparai, Pollachi - Valparai Road, Coimbatore, Valparai - 642127, Tamil Nadu, India"
"Sri Kalaivani Hospital, Kottur, Pollachi",10.5395969,76.9819098,"Sri Kalaivani Hospital, Kottur, Pollachi, Kottur-Angalakuruchi Rd, Coimbatore, Kottur - 642004, Tamil Nadu, India"
"Geethasree Hospital, Coimbatore",11.07196,77.002444,"Geethasree Hospital, Coimbatore, NH948, Sarvanampatti, Coimbatore - 641035, Tamil Nadu, India"
"Balaji Hospital, Sulur",11.0277947,77.1298133,"Balaji Hospital, Sulur, Coimbatore - Tiruchirapalli Highway, Papampatti Pirivu, Sulur - 641402, Tamil Nadu, India"
Bethany Medical Centre,11.1119003,76.7638687,"Bethany Medical Centre, Coimbatore - Anaikatti Road, Coimbatore, Coimbatore - 641108, Tamil Nadu, India"
"J.M.Hospital, Edayarpalayam",11.04984,76.918862,"J.M.Hospital, Edayarpalayam, Thadagam Road, Ward 6, Coimbatore - 641025, Tamil Nadu, India"
AR Medical Centre,11.04788,76.971976,"AR Medical Centre, Bharathiar Road, Ward 41, Coimbatore - 641006, Tamil Nadu, India"
"Kamalaprakasam, Kalapatti",11.0778,77.035681,"Kamalaprakasam, Kalapatti, Saravanampatty - Thennampalayam Road, Ward 33, Coimbatore - 641048, Tamil Nadu, India"
Coimbatore Medical College Hospital,11.0289285,77.0237553,"Coimbatore Medical College Hospital, Avinashi Road, Ward 37, Coimbatore - 641018, Tamil Nadu, India"
SS Hospital Coimbatore,11.04761,77.000115,"SS Hospital Coimbatore, Jeeva Nagar Road, Ward 41, Coimbatore - 641006, Tamil Nadu, India"
Vagai Government Hospital,11.1443519,77.1325092,"Vagai Government Hospital, Thennampalayam - Vagarayampalayam - Annur Road, Coimbatore, Karichipalayam - 641659, Tamil Nadu, India"
"Hem Hospital- Thudiaylur, Coimbatore",11.0757442,76.9424139,"Hem Hospital- Thudiaylur, Coimbatore, Mettupalayam-Coimbatore Road, Ward 1, Coimbatore - 641034, Tamil Nadu, India"
"Governmemt Hospital, Somanur",11.0839439,77.189266,"Governmemt Hospital, Somanur, Karanampettai - Karumathampatti Road, Coimbatore, Somanur - 641668, Tamil Nadu, India"
"Harini Shravan, Coimbatore",11.0703318,77.0005452,"Harini Shravan, Coimbatore, Sathyamangalam Road, Sarvanampatti, Coimbatore - 641035, Tamil Nadu, India"
"Royal Care Hospital, Coimbatore",11.059106,77.0893479,"Royal Care Hospital, Coimbatore, Coimbatore Bypass, Neelambur, Kulathur - 641062, Tamil Nadu, India"
Ramana Gounder Medical Trust Hospital,11.0753938,76.939234,"Ramana Gounder Medical Trust Hospital, Coimbatore-Mettupalayam Road, Ward 2, Coimbatore - 641034, Tamil Nadu, India"
"Bishop Walsh Memorial Hospital, Coimbatore",11.07251,76.871537,"Bishop Walsh Memorial Hospital, Coimbatore, Coimbatore - Anaikatti Road, Coimbatore, Coimbatore - 641108, Tamil Nadu, India"
Malar Hpl Goundanpalayam,11.0437293,76.9475494,"Malar Hpl Goundanpalayam, Coimbatore-Mettupalayam Road, Housing Unit, Coimbatore - 641030, Tamil Nadu, India"
Sai Hospital,11.0904781,76.9383967,"Sai Hospital, Coimbatore-Mettupalayam Road, Ward 1, Coimbatore - 641017, Tamil Nadu, India"
Pavithra Medical Centre,11.08088,76.869337,"Pavithra Medical Centre, Thudiyalur - Chinnathadagam Road, Coimbatore, Coimbatore - 641108, Tamil Nadu, India"
"V.R.Hospital, Coimbatore",11.05642,77.001972,"V.R.Hospital, Coimbatore, Sivanandha Mills - Vilankuruchi Road, Ward 30, Coimbatore - 641035, Tamil Nadu, India"
Sree Subiksha Hospital,11.0287,76.897449,"Sree Subiksha Hospital, Maruthamalai Road, Ward 16, - 641041, Tamil Nadu, India"
Vimal Jothi Hospital,11.0892,77.008366,"Vimal Jothi Hospital, Sathyamangalam Road, Sarvanampatti, Coimbatore - 641035, Tamil Nadu, India"
"Sampath Hospital ,S.S.Kulam",11.1339,77.034088,"Sampath Hospital, S.S.Kulam, Coimbatore - Sathyamangalam Road, Coimbatore, Kariampalayam - 641107, Tamil Nadu, India"
"Ambal Malumichampatty, Coimbatore",10.90265,76.997586,"Ambal Malumichampatty, Coimbatore, Pollachi - Coimbatore Road, Coimbatore, Malumachampatti - 641050, Tamil Nadu, India"
Seesha - Karunya Rural Community Hospital,10.9385845,76.7416507,"Seesha - Karunya Rural Community Hospital, Coimbatore - Siruvani Road, Coimbatore, Pudur - 641114, Tamil Nadu, India"
"Government Hospital, Madukkarai",10.9037986,76.9635381,"Government Hospital, Madukkarai, Kuruchi - Madukkarai - Nachipalayam - Kannamanaickenur Road, Ward 100, Madukkarai - 641105, Tamil Nadu, India"
Natraj Hospital,10.9042796,76.9586654,"Natraj Hospital, Madukkarai - Chettipalayam Road, Coimbatore, Madukkarai - 641105, Tamil Nadu, India"
"I.J.Hospital, Kuniayamuthur, Coimbatore",10.95365,76.955989,"I.J.Hospital, Kuniayamuthur, Coimbatore, kumaran street, Ward 93, - 641008, Tamil Nadu, India"
"Government Hospital, Kinathukadavu",10.82107,77.017406,"Government Hospital, Kinathukadavu, Pollachi - Coimbatore Road, Coimbatore, Kinathukadavu - 642109, Tamil Nadu, India"
Sri Venkateswara Kinnathukadavu,10.8241085,77.0191884,"Sri Venkateswara Kinnathukadavu, Pollachi - Coimbatore Road, Coimbatore, Kinathukadavu - 642109, Tamil Nadu, India"
"Abirami Hospital, Coimbatore",10.95254,76.973201,"Abirami Hospital, Coimbatore, Kuruchi - Madukkarai - Nachipalayam - Kannamanaickenur Road, Ward 97, Podanur - 641024, Tamil Nadu, India"
"Ganapathy Pc Sundarapuram,",10.9521673,76.9758815,"Ganapathy Pc Sundarapuram, Pollachi road, Ward 97, Podanur - 641024, Tamil Nadu, India"
Ponnaiah Hospital,11.0108047,76.9530054,"Ponnaiah Hospital, Thiruvenkatasamy (TV Samy) Road, Ward 23, - 641002, Tamil Nadu, India"
"Rani Nursing Home, Selvapuram, Coimbatore",10.9871756,76.9392029,"Rani Nursing Home, Selvapuram, Coimbatore, Coimbatore - Siruvani Road, Ward 76, Perur - 641026, Tamil Nadu, India"
"Shree Hospital, Puliakulam, Coimbatore",11.0064832,76.9914482,"Shree Hospital, Puliakulam, Coimbatore, Puliyakulam Road, Puliakulam, Coimbatore - 641045, Tamil Nadu, India"
"Sri Meenakshi Hospital, Kuniamuthur",10.9567349,76.9544328,"Sri Meenakshi Hospital, Kuniamuthur, Palghat road, Ward 88, Madukkarai - 641008, Tamil Nadu, India"
Shanmuga Hospital Rs Puram,11.0029,76.948869,"Shanmuga Hospital Rs Puram, Arunachalam Street, Ward 24, - 641002, Tamil Nadu, India"
"Government Hospital, Sulur",11.0247544,77.1228621,"Government Hospital, Sulur, Coimbatore - Tiruchirapalli Highway, Papampatti Pirivu, Sulur - 641402, Tamil Nadu, India"
Singanallur Government Hospital,11.0011,77.033733,"Singanallur Government Hospital, Tiruchi Road, Uppilipalayam, - 641005, Tamil Nadu, India"
Podanur Government Hospital,10.9664096,76.9870623,"Podanur Government Hospital, Nanjundapuram Road, Ward 99, Nanjundapuram - 641023, Tamil Nadu, India"
"Jeevan Clinic and Hospital, Coimbatore",11.019947,76.9670891,"Jeevan Clinic and Hospital, Coimbatore, 5th Street, Gandhipuram, Coimbatore - 641012, Tamil Nadu, India"
"Medwin Hospital, Coimbatore",10.9972946,77.0051728,"Medwin Hospital, Coimbatore, Tiruchi Road, Uppilipalayam, - 661005, Tamil Nadu, India"
Sudha Hospital,11.0168278,76.9758131,"Sudha Hospital, Bharathiyar Road, Ward 52, Coimbatore - 641002, Tamil Nadu, India"
"I.C.C Hospital For Women & Children, Coimbatore",10.9958251,76.9634777,"I.C.C Hospital For Women & Children, Coimbatore, Ismail Rovuthar Street, Ward 81, - 641001, Tamil Nadu, India"
"Government Hospital, Kuruchi",10.9638671,76.97122,"Government Hospital, Kuruchi, Pollachi road, Ward 94, Podanur - 641021, Tamil Nadu, India"
"Peoples Medical Centre, Coimbatore",11.0217448,77.0603524,"Peoples Medical Centre, Coimbatore, Chinniyampalayam-Irugur Rd, Irugur, - 641103, Tamil Nadu, India"
"VGM Hospital, Coimbatore",10.99819,77.014447,"VGM Hospital, Coimbatore, Tiruchi Road, Uppilipalayam, - 641020, Tamil Nadu, India"
"Roselet Medical Centre,Coimbatore",11.01005,77.008874,"Roselet Medical Centre, Coimbatore, Sowripalayam Road, Sowripalayam, - 641028, Tamil Nadu, India"
"Sabari Hospital, Coimbatore",11.0254441,76.939724,"Sabari Hospital, Coimbatore, NSR Road, Saibaba Colony, Coimbatore - 641011, Tamil Nadu, India"
Raksha Medical Centre,10.95665,76.987019,"Raksha Medical Centre, Podanur Road, Ward 98, Podanur - 641023, Tamil Nadu, India"
"Dr.Manoharan Hospital, Thadagam, Coimbatore",11.0067511,76.9452484,"Dr.Manoharan Hospital, Thadagam, Coimbatore, Thadagam Road, Ward 79, - 641002, Tamil Nadu, India"
"Sengottaiah Hospital, Coimbatore",11.0225148,76.9601579,"Sengottaiah Hospital, Coimbatore, Dr. Radhakrishnan Road, Ward 50, Coimbatore - 641012, Tamil Nadu, India"
"Sangeetha Hospital, Kuniyamuthur",10.9641042,76.9562562,"Sangeetha Hospital, Kuniyamuthur, Palghat road, Ward 87, Madukkarai - 641008, Tamil Nadu, India"
"Seetharam Hospital, Coimbatore",10.99941,76.948495,"Seetharam Hospital, Coimbatore, Thadagam Road, Ward 79, - 641007, Tamil Nadu, India"
Preethi Medical Centre,11.0208486,76.9649585,"Preethi Medical Centre, 9th street Extention, Ward 52, Coimbatore - 641012, Tamil Nadu, India"
"Ishaiah Hospital, Coimbatore",11.0154329,76.9779193,"Ishaiah Hospital, Coimbatore, Kattor Road, PN Palayam, Coimbatore - 641037, Tamil Nadu, India"
Manu Hospital- Coimbatore,10.99147,76.976787,"Manu Hospital- Coimbatore, Valankulam Bypass Road, Ramanathapuram, Coimbatore - 641045, Tamil Nadu, India"
Saraswathi Hospital,11.0069868,77.071368,"Saraswathi Hospital, Coimbatore - Kovai Road, Ondipudur, - 641103, Tamil Nadu, India"
Akshaya Maternity Center,11.02567,76.902176,"Akshaya Maternity Center, Kaundampalayam - Vadavalli - Onappalayam Road, Vadavalli, - 641041, Tamil Nadu, India"
Coimbatore Corporation Maternity Centre,11.0068267,76.9668812,"Coimbatore Corporation Maternity Centre, Dr Nanjappa Road, Ward 72, Coimbatore - 641018, Tamil Nadu, India"
"Muniyappa Hospital, Coimbatore",11.0060689,76.9527967,"Muniyappa Hospital, Coimbatore, Ramachandra Road, RS Puram, - 641002, Tamil Nadu, India"
"Rajalakshmi Hospital, Coimbatore",11.0044176,76.9503459,"Rajalakshmi Hospital, Coimbatore, Ramangam Road, Ward 24, - 641002, Tamil Nadu, India"
Sivashantha Mother & Child Health Centre,11.0231222,76.9136781,"Sivashantha Mother & Child Health Centre, Maruthamalai Road, Ward 16, Coimbatore - 641041, Tamil Nadu, India"
"Vela Hospital, Singanallur, Coimbatore",11.0017873,77.0300545,"Vela Hospital, Singanallur, Coimbatore, Kamarajar Road, Uppilipalayam, - 641005, Tamil Nadu, India"
"Guru Kirupa Hospital, Pn Palayam, Coimbatore",10.9995252,76.9511992,"Guru Kirupa Hospital, Pn Palayam, Coimbatore, Sukrawarpettai Mill Road, Ward 79, - 641020, Tamil Nadu, India"
Sathyan Eye Care Hospital & Coimbatore Glaucoma Foundation,10.9980405,77.0009615,"Sathyan Eye Care Hospital & Coimbatore Glaucoma Foundation, Sowripalayam Road, Ward 67, Coimbatore - 641035, Tamil Nadu, India"
St. Mary's Hospital,10.9626641,76.98594,"St. Mary's Hospital, Podanur Road, Ward 98, Podanur - 641023, Tamil Nadu, India"
Sanmugapriya Hospital Coimbatore,11.0145025,77.0079676,"Sanmugapriya Hospital Coimbatore, Mariamman Koil Street, Udayampalayam, - 641028, Tamil Nadu, India"
"Thondamuthur, Government Hospital",10.9917607,76.8421063,"Thondamuthur, Government Hospital, Coimbatore - Thondamuthur - Narasipuram Road, Town Hall, Kulathupalayam - 641109, Tamil Nadu, India"
"Revathi Hospital, Selvapuram",10.9882483,76.9400963,"Revathi Hospital, Selvapuram, Coimbatore - Siruvani Road, Ward 86, Perur - 641026, Tamil Nadu, India"
Nehru Urology Centre,11.0248525,76.9943296,"Nehru Urology Centre, 3rd Street West, Bharathi Colony, Peelamedu, - 641004, Tamil Nadu, India"
"Om Sakthi Hospital, Coimbatore",11.00282,76.988996,"Om Sakthi Hospital, Coimbatore, Red Fields Road, Red Fields, Coimbatore - 641045, Tamil Nadu, India"
Sri Bala Medical Centre Hospital,10.9967187,76.9954568,"Sri Bala Medical Centre Hospital, Tiruchi Road, Ward 68, Coimbatore - 641045, Tamil Nadu, India"
Santhiya Hospital,10.9950877,76.9746602,"Santhiya Hospital, Tiruchi Road, Ward 73, Coimbatore - 641302, Tamil Nadu, India"
Sowmiya Hospital,11.2377363,76.9652218,"Sowmiya Hospital, Karamadai - Kariyampalayam Road, Coimbatore, Karamadai - 641104, Tamil Nadu, India"
"KR Hospital, Karamadai",11.23934,76.962781,"KR Hospital, Karamadai, Karamadai - Kariyampalayam Road, Coimbatore, Karamadai - 641104, Tamil Nadu, India"
"Government Hospital, Annur",11.2325,77.102249,"Government Hospital, Annur, Coimbatore - Sathyamangalam Road, Coimbatore, Annur - 641653, Tamil Nadu, India"
"Dj Jothipuram, Coimbatore",11.16107,76.946818,"Dj Jothipuram, Coimbatore, Mettupalayam-Coimbatore Road, Periyanaickenpalyam, Veerapandi Pirivu - 641047, Tamil Nadu, India"
NM Hospital,11.23271,77.10187,"NM Hospital, Coimbatore - Sathyamangalam Road, Coimbatore, Annur - 641653, Tamil Nadu, India"
Shanthi Medical Foundation,11.232428,77.1016701,"Shanthi Medical Foundation, Coimbatore - Sathyamangalam Road, Coimbatore, Annur - 641005, Tamil Nadu, India"
Nivarithi Hospital,11.168874,76.9536715,"Nivarithi Hospital, Mettupalayam-Coimbatore Road, Periyanaickenpalyam, Veerapandi Pirivu - 641047, Tamil Nadu, India"
R.G. Hospital,11.23188,77.100705,"R.G. Hospital, Coimbatore - Sathyamangalam Road, Coimbatore, Annur - 641653, Tamil Nadu, India"
"Government Hospital, Perianaickenpalaym",11.1520934,76.9465875,"Government Hospital, Perianaickenpalaym, Railway Feeder Rd, Periyanaickenpalyam, - 641020, Tamil Nadu, India"
"Government Hospital, Mettupalayam",11.2891427,76.9409612,"Government Hospital, Mettupalayam, CTC road, Coimbatore, Mettupalayam - 641301, Tamil Nadu, India"
Devi Hospital,11.0253792,76.9381035,"Devi Hospital, NSR Road, Saibaba Colony, Coimbatore - 641011, Tamil Nadu, India"
Sumith Hospital,11.0387262,76.9228367,"Sumith Hospital, Kaundampalayam - Vadavalli - Onappalayam Road, Ward 7, - 641025, Tamil Nadu, India"
Ranjith Dental Hospital,11.038389,76.926209,"Ranjith Dental Hospital, Thadagam Road, Ward 8, Coimbatore - 641025, Tamil Nadu, India"
Rukmani Ammal Hospital,11.025042,76.9439008,"Rukmani Ammal Hospital, Bharathi Park 2nd cross, Saibaba Colony, Coimbatore - 641011, Tamil Nadu, India"
Onecare Ortho Hospital,11.026568,76.948798,"Onecare Ortho Hospital, NSR Road, Saibaba Colony, Coimbatore - 641011, Tamil Nadu, India"
Raaj Dental Hospital,11.0263447,76.9423976,"Raaj Dental Hospital, NSR Road, Saibaba Colony, Coimbatore - 641038, Tamil Nadu, India"
Aswin Hospital,11.0255271,76.9515108,"Aswin Hospital, Mettupalayam Road, Saibaba Colony, Coimbatore - 641043, Tamil Nadu, India"
Sakthi Fertility Hospital,11.0255323,76.9463747,"Sakthi Fertility Hospital, Raja Annamalai Road, Saibaba Colony, Coimbatore - 641011, Tamil Nadu, India"
Masani Hospital,11.0246928,76.9435571,"Masani Hospital, Bharathi Park 2nd cross, Saibaba Colony, Coimbatore - 641011, Tamil Nadu, India"
Kandaswamy Sidhq Hospital,11.026645,76.945987,"Kandaswamy Sidhq Hospital, NSR Road, Saibaba Colony, Coimbatore - 641043, Tamil Nadu, India"
P S G Cules Hospital,11.045772,76.92291,"P S G Cules Hospital, Thadagam Road, Ward 6, Coimbatore - 641025, Tamil Nadu, India"
Paavai ENT Hospital,11.0270905,76.9416551,"Paavai ENT Hospital, Chinnappan Street, Ward 12, Coimbatore - 641011, Tamil Nadu, India"
Vishnupriys Hospital,11.0365363,76.9317515,"Vishnupriys Hospital, Simson Nagar Extension, Ward 8, Coimbatore - 641025, Tamil Nadu, India"
Srinivas Hospital,11.013248,77.0192485,"Srinivas Hospital, Kamarajar Road, Uppilipalayam, - 641015, Tamil Nadu, India"
Chycartist Hospital,11.0160902,77.0202551,"Chycartist Hospital, Kamarajar Road, Uppilipalayam, - 641015, Tamil Nadu, India"
Dr. Felix Hospital,11.0044086,77.0348661,"Dr. Felix Hospital, Tiruchi Road, Ward 61, - 641005, Tamil Nadu, India"
Nithya Hospital,11.0210366,76.9665217,"Nithya Hospital, 6th steet Extention, Ward 52, Coimbatore - 641012, Tamil Nadu, India"
Vishnu Hospital,11.0076298,76.9576345,"Vishnu Hospital, Shanmuga Theatre Road, Vadakovai, - 641011, Tamil Nadu, India"
Arc Fertility Hospital,11.012539,76.986166,"Arc Fertility Hospital, Puliyakulam Road, Puliakulam, Coimbatore - 641037, Tamil Nadu, India"
Rex Ortho Hospital,11.008405,76.956396,"Rex Ortho Hospital, Mettupalayam Road, Vadakovai, - 641002, Tamil Nadu, India"
N R Hospital,11.0112326,76.9548289,"N R Hospital, Mettupalayam Road, Vadakovai, - 641002, Tamil Nadu, India"
Parvathy Hospitals,11.01472,76.952299,"Parvathy Hospitals, Sir Shanmugam Road, Vadakovai, - 641002, Tamil Nadu, India"
Srigiri Ayurvedic Hospital,11.0081541,76.9578763,"Srigiri Ayurvedic Hospital, Shanmuga Theatre Road, Vadakovai, - 641001, Tamil Nadu, India"
K.B.S. Hospital,11.0157437,76.9842202,"K.B.S. Hospital, New Scheme Road, PN Palayam, Coimbatore - 641044, Tamil Nadu, India"
Dr. G. Thiagarajan's Memorial Hospital,11.00534,76.989401,"Dr. G. Thiagarajan's Memorial Hospital, Red Fields Road, Red Fields, Coimbatore - 641045, Tamil Nadu, India"
Ramvel Hospital,10.9958212,76.9963939,"Ramvel Hospital, Nanjundapuram Road, Ward 68, Nanjundapuram - 641045, Tamil Nadu, India"
Sathya Medical Centre & Hospital,11.0238937,76.9582121,"Sathya Medical Centre & Hospital, 1st street, Tatabad, Coimbatore - 641012, Tamil Nadu, India"
Dr. K Shitra Hospital,11.0052314,76.9555303,"Dr. K Shitra Hospital, Mettupalayam Road, RS Puram, - 641041, Tamil Nadu, India"
Ramakrishna Hospital,11.0207084,76.972413,"Ramakrishna Hospital, 100 Feet Road, Siddhapudur, Coimbatore - 641044, Tamil Nadu, India"
Seethalakshmi Maternity Hospital,11.0065379,76.9600631,"Seethalakshmi Maternity Hospital, Krishnasamy Road, Ward 25, Coimbatore - 641001, Tamil Nadu, India"
Sri Vishnu Priya Hospital,10.998711,76.951222,"Sri Vishnu Priya Hospital, Sukrawarpettai Mill Road, Ward 79, - 641001, Tamil Nadu, India"
Arun Urology Hospital,11.0143168,76.9449938,"Arun Urology Hospital, Cowley Brown Rd, Ward 79, - 641002, Tamil Nadu, India"
Vennila Hospital,10.9901191,76.9421502,"Vennila Hospital, Ramamurthy Road, Ward 77, - 641026, Tamil Nadu, India"
R.S Hospital,11.0091279,76.954667,"R.S Hospital, Kannusamy Road, Vadakovai, - 641002, Tamil Nadu, India"
Welcare Hospital,10.989403,76.961714,"Welcare Hospital, Sout Ukkadam, Ward 84, - 641008, Tamil Nadu, India"
Becker Manual Hospital,11.020659,76.968611,"Becker Manual Hospital, 2nd street Extention, Ward 52, Coimbatore - 641012, Tamil Nadu, India"
Narmada Hospital,10.9967758,77.0071075,"Narmada Hospital, NH181, Sowripalayam, - 641045, Tamil Nadu, India"
Rao Hospital,11.0131526,76.948405,"Rao Hospital, Periasamy Road, Ward 23, - 641002, Tamil Nadu, India"
Kamala Prakash Hospital,11.007283,76.956267,"Kamala Prakash Hospital, Shanmuga Theatre Road, Vadakovai, - 641014, Tamil Nadu, India"
Rafa Hospital,11.007011,76.992439,"Rafa Hospital, Puliyakulam Road, Puliakulam, Coimbatore - 641045, Tamil Nadu, India"
Subu Hospital,10.9920096,76.9520898,"Subu Hospital, Vysial Street, Ward 85, - 641008, Tamil Nadu, India"
Rajagambiram Dental Hospital,10.9923475,76.9559691,"Rajagambiram Dental Hospital, P.K.STREET, Ward 84, - 641001, Tamil Nadu, India"
Iswarya Hospital,11.0002483,76.9518169,"Iswarya Hospital, Diwan Bhadur Road, RS Puram, - 641002, Tamil Nadu, India"
Sri Guru Hospital,10.9920855,76.9574858,"Sri Guru Hospital, Vysial Street, Ukkadam, - 641008, Tamil Nadu, India"
PGS Hospital,11.0153485,76.9524368,"PGS Hospital, Cowley Brown Rd, Ward 21, - 641002, Tamil Nadu, India"
K Jagathnathan Hospital,10.999154,76.951549,"K Jagathnathan Hospital, Sukrawarpettai Mill Road, Ward 79, - 641034, Tamil Nadu, India"
Mak Hospital,11.008435,76.9580134,"Mak Hospital, Shanmuga Theatre Road, Vadakovai, - 641043, Tamil Nadu, India"
Unknown Hospital,10.5400649,76.9828064,"Government Hospital, Kottur-Angalakuruchi Rd, Coimbatore, Kottur - 642114, Tamil Nadu, India"
Gokulam ortho hospital,11.1340331,77.0350369,"Gokulam ortho hospital, Karuvalur - Kovilpalayam Road, Coimbatore, Kovilpalayam - 641107, Tamil Nadu, India"
Arunai Hospitals,11.0182403,76.9246,"Arunai Hospitals, 1st street, Ward 15, Coimbatore - 641001, Tamil Nadu, India"
"Deepam Hospital, Ramanathapuram",10.9965453,77.0039274,"Deepam Hospital, Ramanathapuram, NH181, Sowripalayam, - 641045, Tamil Nadu, India"
Kalpana Medical Centre,11.0469835,76.9476787,"Kalpana Medical Centre, Mettupalayam Road, Ward 45, Coimbatore - 641030, Tamil Nadu, India"
Ganga Hospital,11.026129,76.9524873,"Ganga Hospital Blood Bank, Mettupalayam Road, Saibaba Colony, Coimbatore - 641043, Tamil Nadu, India"
Sankara Eye Hospital,11.0558646,76.9977839,"Sankara Eye Hospital, Vilankurichi road, Ward 30, Coimbatore - 641035, Tamil Nadu, India"
Meenakshi Hospital,11.2913595,76.9413024,"Meenakshi Hospital, Mettupalayam-Coimbatore Road, Coimbatore, Mettupalayam - 641301, Tamil Nadu, India"
Dr. Arjun Hospital,10.9843661,76.930203,"Dr. Arjun Hospital, Coimbatore - Siruvani Road, Ward 76, Perur - 641026, Tamil Nadu, India"
Unknown Hospital,11.0112862,76.9803545,"Nethaji Road, PN Palayam, Coimbatore - 641001, Tamil Nadu, India"
"Gem Hospital, Coimbatore",10.9996629,76.9953933,"Gem Hospital, Coimbatore, 50 Feet Road, Ward 67, Coimbatore - 641045, Tamil Nadu, India"
"Kovai Medical Centre,Coimbatore",11.0426077,77.0406074,"Kovai Medical Centre, Coimbatore, Avinashi Road, Civil Aerodrome, Coimbatore - 641014, Tamil Nadu, India"
Coimbatore Medical College Hospital,10.9964129,76.9702365,"Coimbatore Medical College Hospital, Tiruchi Road, Ward 73, Coimbatore - 641002, Tamil Nadu, India"
Coimbatore Diabetes Foundation,11.0344771,76.8765145,"Bharathiar University, Maruthamalai Road, Ward 16, - 641046, Tamil Nadu, India"
Airforce Hospital,11.0056673,76.9860901,"Airforce Hospital, Kamarjar Road, Red Fields, Coimbatore - 641001, Tamil Nadu, India"
Anurag Hospital,11.006956,77.011889,"Anurag Hospital, Krishna Nager 2nd Street, Ward 65, - 641028, Tamil Nadu, India"
Rajam Medical Centre & Hospital,10.9487627,76.9776849,"Rajam Medical Centre & Hospital, Pollachi road, Ward 97, Podanur - 641021, Tamil Nadu, India"
Sri Balaji Hospitals,10.953798,76.9736085,"Sri Balaji Hospitals, NH948, Ward 94, Podanur - 641024, Tamil Nadu, India"
Abinand Hospital,10.954295,76.9731819,"Abinand Hospital, NH948, Ward 94, Podanur - 641024, Tamil Nadu, India"
FIMS Hospitals | Best Multispeciality Hospital In Sonipat,10.9578432,76.9723979,"FIMS Hospitals | Best Multispeciality Hospital In Sonipat, 131001, Pollachi road, Ward 94, Podanur - 641024, Tamil Nadu, India"
NRP Hospitals,10.9581915,76.9710523,"NRP Hospitals, NH948, Ward 94, Podanur - 641024, Tamil Nadu, India"
Seetharam Hospital,10.9868836,76.9335496,"Seetharam Hospital, Coimbatore - Siruvani Road, Ward 76, Perur - 641026, Tamil Nadu, India"
Snekaram Hospital,10.9873439,76.9357994,"Snekaram Hospital, Coimbatore - Siruvani Road, Ward 76, Perur - 641026, Tamil Nadu, India"
Medicine Point,10.9681553,76.9785734,"Medicine Point, Podanur Junction Road, Ward 95, Podanur - 641023, Tamil Nadu, India"
Coimbatore Child Trust Hospital,10.9978875,77.0170667,"Coimbatore Child Trust Hospital, NH181, Udayampalayam, - 641005, Tamil Nadu, India"
Sri Ramakrishna Hospital,11.0236015,76.976512,"Sri Ramakrishna Hospital, Avarampalayam Road, Siddhapudur, Coimbatore - 641001, Tamil Nadu, India"
Saranya Ayurveda Hospital,10.8733334,76.8784217,"Saranya Ayurveda Hospital, Salem - Kochi - Kanyakumari Highway, Coimbatore, Kandhe Gounden Chavadi - 641112, Tamil Nadu, India"
St. Marys Hospital,10.9625619,76.9865689,"St. Marys Hospital, Podanur Road, Ward 98, Podanur - 641023, Tamil Nadu, India"
Global Ortho & Trauma Hospital,11.0107975,76.9661095,"Global Ortho & Trauma Hospital, Kalinganagar Street, Ram Nagar, Coimbatore - 641001, Tamil Nadu, India"
Sundakamuthur Government Hospital,10.9559428,76.9241442,"Sundakamuthur Government Hospital, KM 6/8 of Coimbatore-Siruvani Road - KM 165/8 of Salem-Cochin Road, Ward 89, Perur - 641010, Tamil Nadu, India"
GMC & ESI Hospitals,11.0087369,77.0227178,"GMC & ESI Hospitals, Kamarajar Road, Uppilipalayam, - 641015, Tamil Nadu, India"
v.g.hospital,11.0705125,76.9420344,"v.g.hospital, Coimbatore-Mettupalayam Road, Ward 2, Coimbatore - 641001, Tamil Nadu, India"
"Dr.Sengaliappan Nursing Home, Coimbatore",11.0272375,76.9501348,"Dr.Sengaliappan Nursing Home, Coimbatore, Ward 10, Saibaba Temple - 641011, Tamil Nadu, India"
Kumaran Medical Center-Multispeciality Hospital,11.10729,77.0238004,"Kumaran Medical Center-Multispeciality Hospital, 499/500, Sathyamangalam Road, Ward 32, Coimbatore - 641035, Tamil Nadu, India"
Swami Dayananda Jayavarthanavelu Rural & Tribal Hospital,11.107894,76.7675719,"Swami Dayananda Jayavarthanavelu Rural & Tribal Hospital, Coimbatore - Anaikatti Road, Coimbatore, Anaikatti - 678741, Tamil Nadu, India"
Unknown Hospital,11.0570355,77.0672508,"KGM, Chinniampalayam, Avinashi Road, Ward 35, Coimbatore - 641062, Tamil Nadu, India"
"KGM, Chinniampalayam",11.0570076,77.067239,"KGM, Chinniampalayam, Avinashi Road, Ward 35, Coimbatore - 641062, Tamil Nadu, India"
AB Child Care Hospital,11.0006913,77.028744,"AB Child Care Hospital, Tiruchi Road, Uppilipalayam, - 641005, Tamil Nadu, India"
Martin Homoeopathy,11.0051006,77.027114,"Martin Homoeopathy, Kamarajar Road, Uppilipalayam, - 641005, Tamil Nadu, India"
Punarnava Ayurveda,10.9830163,76.9995841,"Punarnava Ayurveda, Nanjundapuram Road, Ward 75, Nanjundapuram - 661005, Tamil Nadu, India"
Unknown Hospital,11.0825607,76.9973976,"KG Eye Hospital, Robert Bosch Street, Ward 28, Coimbatore - 641001, Tamil Nadu, India"
G. Kuppuswamy Naidu Memorial Hospital,11.0119015,76.980748,"G. Kuppuswamy Naidu Memorial Hospital, Nethaji Road, PN Palayam, Coimbatore - 641037, Tamil Nadu, India"
Unknown Hospital,11.0128666,76.9803086,"Nethaji Road, PN Palayam, Coimbatore - 641001, Tamil Nadu, India"
"Aravind Eye Hospital - Peelamedu, Coimbatore",11.0356018,77.0328714,"Aravind Eye Hospital - Peelamedu, Coimbatore, Avinashi Road, Ward 36, Coimbatore - 641014, Tamil Nadu, India"
